[
  {
    "id": "china-early",
    "name": "China",
    "label": "Early educational foundation in China",
    "lat": 30.5928,
    "lon": 114.0579,
    "summary": "Early educational foundation in China.",
    "camera": {
      "center": [114.0579, 30.5928],
      "zoom": 4.5
    }
  },
  {
    "id": "california-uc",
    "name": "California",
    "label": "University of California",
    "lat": 37.8719,
    "lon": -122.2585,
    "summary": "Attended University of California before dropping out to pursue entrepreneurship full-time.",
    "camera": {
      "center": [-122.2585, 37.8719],
      "zoom": 8.0
    }
  },
  {
    "id": "us-universities",
    "name": "United States",
    "label": "40 University Tour & Angel Investing",
    "lat": 39.8283,
    "lon": -98.5795,
    "summary": "Three-month tour across 40 top U.S. universities (Harvard, MIT, Stanford, Caltech, Berkeley, CMU, Duke, etc.), meeting thousands of students. Made 30 investments during this period. Delivered 130+ global university talks including every Ivy League and C9 university.",
    "camera": {
      "center": [-98.5795, 39.8283],
      "zoom": 3.5
    }
  },
  {
    "id": "global-distributed",
    "name": "Global",
    "label": "Distributed work across ecosystems",
    "distributed": true,
    "lat": 20,
    "lon": 0,
    "summary": "Work spans global entrepreneurial and educational ecosystems through Inner Journey, Code of Love, and angel investing.",
    "camera": {
      "center": [0, 20],
      "zoom": 1.5
    }
  },
  {
    "id": "china-yc",
    "name": "China",
    "label": "Y Combinator China founding team",
    "lat": 31.2304,
    "lon": 121.4737,
    "summary": "Joined YC China founding team in Shanghai, working with Sam Altman on investment evaluation and founder support.",
    "camera": {
      "center": [121.4737, 31.2304],
      "zoom": 5.0
    }
  },
  {
    "id": "china-miracleplus",
    "name": "China",
    "label": "MiraclePlus scaling operations",
    "lat": 39.9042,
    "lon": 116.4074,
    "summary": "Core founding team member at MiraclePlus, scaling investment operations and building the intern sourcing engine.",
    "camera": {
      "center": [116.4074, 39.9042],
      "zoom": 5.0
    }
  }
]
